[{"County":"Broward","Name":"North Side Elementary School","Address":"120 NE 11th St.","Latitude":26.137944,"Longitude":-80.143027},
{"County":"Broward","Name":"Dillard Elementary School","Address":"2330 NW 12th Court","Latitude":26.140363,"Longitude":-80.173353},
{"County":"Broward","Name":"Walker Elementary School (Magnet)","Address":"1001 NW 4th St.","Latitude":26.12669,"Longitude":-80.155863},
{"County":"Broward","Name":"Dr. Martin Luther King Montessori Academy","Address":"591 NW 31st Ave.","Latitude":26.12837,"Longitude":-80.187129},
{"County":"Broward","Name":"Robert C. Markham Elementary","Address":"1501 NW 15th Ave.","Latitude":26.246596,"Longitude":-80.144429},
{"County":"Dade","Name":"Lorah Park Elementary School","Address":"5160 NW 31st Ave.","Latitude":25.821373,"Longitude":-80.247429},
{"County":"Dade","Name":"Toussaint L'Ouverture Elementary","Address":"120 NE 59th St.","Latitude":25.829238,"Longitude":-80.19405},
{"County":"Dade","Name":"West Homestead K-8 Center","Address":"1550 SW 6th St.","Latitude":25.463341,"Longitude":-80.496041},
{"County":"Dade","Name":"Brownsville Middle School","Address":"4899 NW 24th Ave.","Latitude":25.819449,"Longitude":-80.235542},
{"County":"Dade","Name":"Homestead Middle School","Address":"650 NW 2nd Ave.","Latitude":25.476403,"Longitude":-80.48237}]
