[{"county":"Alachua","name":"Myra Terwilliger Elementary School","city":"Gainesville","enrollment":680,"grade17":"D","grade16":"D","grade15":"C","latitude":29.655048,"longitude":-82.407079},
{"county":"Bay","name":"Lucille Moore Elementary School","city":"Panama City","enrollment":545,"grade17":"D","grade16":"D","grade15":"C","latitude":30.183512,"longitude":-85.706997},
{"county":"Bay","name":"Springfield Elementary School","city":"Panama City","enrollment":465,"grade17":"D","grade16":"D","grade15":"D","latitude":30.15754,"longitude":-85.615204},
{"county":"Brevard","name":"Palm Bay Elementary School","city":"Palm Bay","enrollment":799,"grade17":"D","grade16":"D","grade15":"C","latitude":28.028746,"longitude":-80.590936},
{"county":"Broward","name":"Dillard Elementary School","city":"Fort Lauderdale","enrollment":817,"grade17":"D","grade16":"F","grade15":"F","latitude":26.140363,"longitude":-80.173353},
{"county":"Broward","name":"Larkdale Elementary School","city":"Lauderhill","enrollment":404,"grade17":"F","grade16":"C","grade15":"F","latitude":26.139695,"longitude":-80.190602},
{"county":"Broward","name":"North Side Elementary School","city":"Fort Lauderdale","enrollment":485,"grade17":"D","grade16":"D","grade15":"F","latitude":26.137944,"longitude":-80.143027},
{"county":"Broward","name":"Northeast High School","city":"Oakland Park","enrollment":"1,815","grade17":"I","grade16":"D","grade15":"C","latitude":26.195563,"longitude":-80.137427},
{"county":"Calhoun","name":"Calhoun Virtual Instruction Program (D)","city":"Blountstown","enrollment":27,"grade17":"F","grade16":"","grade15":"","latitude":30.449398,"longitude":-85.049264},
{"county":"Dade","name":"Homestead Middle School","city":"Homestead","enrollment":647,"grade17":"D","grade16":"D","grade15":"D","latitude":25.476403,"longitude":-80.48237},
{"county":"Dade","name":"Lorah Park Elementary School","city":"Miami","enrollment":435,"grade17":"D","grade16":"D","grade15":"D","latitude":25.821373,"longitude":-80.247429},
{"county":"Dade","name":"Miami Carol City Senior High","city":"Miami Gardens","enrollment":"1,252","grade17":"D","grade16":"D","grade15":"C","latitude":25.942375,"longitude":-80.257126},
{"county":"Dade","name":"Toussaint L'Ouverture Elementary","city":"Miami","enrollment":443,"grade17":"D","grade16":"D","grade15":"F","latitude":25.829238,"longitude":-80.19405},
{"county":"Dade","name":"West Homestead K-8 Center","city":"Homestead","enrollment":752,"grade17":"D","grade16":"D","grade15":"D","latitude":25.463341,"longitude":-80.496041},
{"county":"Duval","name":"Arlington Heights Elementary School","city":"Jacksonville","enrollment":399,"grade17":"D","grade16":"D","grade15":"D","latitude":30.33732,"longitude":-81.592398},
{"county":"Duval","name":"Arlington Middle School","city":"Jacksonville","enrollment":838,"grade17":"D","grade16":"D","grade15":"D","latitude":30.337725,"longitude":-81.570586},
{"county":"Duval","name":"George Washington Carver Elementary","city":"Jacksonville","enrollment":446,"grade17":"D","grade16":"D","grade15":"F","latitude":30.368027,"longitude":-81.710572},
{"county":"Duval","name":"Gregory Drive Elementary School","city":"Jacksonville","enrollment":722,"grade17":"D","grade16":"D","grade15":"D","latitude":30.26179,"longitude":-81.777422},
{"county":"Duval","name":"Marine Science Education Center","city":"Atlantic Beach","enrollment":38,"grade17":"F","grade16":"F","grade15":"","latitude":30.393911,"longitude":-81.427738},
{"county":"Duval","name":"Ramona Boulevard Elementary School","city":"Jacksonville","enrollment":464,"grade17":"F","grade16":"C","grade15":"C","latitude":30.312235,"longitude":-81.742505},
{"county":"Escambia","name":"Ensley Elementary School","city":"Pensacola","enrollment":509,"grade17":"D","grade16":"D","grade15":"D","latitude":30.516553,"longitude":-87.250519},
{"county":"Escambia","name":"Global Learning Academy","city":"Pensacola","enrollment":758,"grade17":"D","grade16":"D","grade15":"C","latitude":30.414917,"longitude":-87.243275},
{"county":"Escambia","name":"Montclair Elementary School","city":"Pensacola","enrollment":357,"grade17":"D","grade16":"F","grade15":"F","latitude":30.454472,"longitude":-87.258716},
{"county":"Escambia","name":"Myrtle Grove Elementary School","city":"Pensacola","enrollment":623,"grade17":"F","grade16":"C","grade15":"C","latitude":30.422387,"longitude":-87.296928},
{"county":"Escambia","name":"Pine Forest High School","city":"Pensacola","enrollment":"1,687","grade17":"D","grade16":"D","grade15":"C","latitude":30.488302,"longitude":-87.296159},
{"county":"Escambia","name":"Reinhardt Holm Elementary School","city":"Pensacola","enrollment":490,"grade17":"D","grade16":"D","grade15":"D","latitude":30.485533,"longitude":-87.205303},
{"county":"Escambia","name":"Warrington Middle School","city":"Pensacola","enrollment":671,"grade17":"F","grade16":"F","grade15":"C","latitude":30.405592,"longitude":-87.271522},
{"county":"Escambia","name":"Woodham Middle School","city":"Pensacola","enrollment":777,"grade17":"D","grade16":"D","grade15":"D","latitude":30.498467,"longitude":-87.248007},
{"county":"Gadsden","name":"East Gadsden High School","city":"Havana","enrollment":795,"grade17":"D","grade16":"F","grade15":"F","latitude":30.552638,"longitude":-84.502603},
{"county":"Gadsden","name":"George W. Munroe Elementary School","city":"Quincy","enrollment":530,"grade17":"F","grade16":"D","grade15":"F","latitude":30.591024,"longitude":-84.601796},
{"county":"Hamilton","name":"North Hamilton Elementary School","city":"Jennings","enrollment":485,"grade17":"D","grade16":"D","grade15":"D","latitude":30.600265,"longitude":-83.099781},
{"county":"Hernando","name":"Moton Elementary School","city":"Brooksville","enrollment":638,"grade17":"D","grade16":"D","grade15":"C","latitude":28.533338,"longitude":-82.377363},
{"county":"Hillsborough","name":"Chamberlain High School","city":"Tampa","enrollment":"1,744","grade17":"D","grade16":"D","grade15":"C","latitude":28.036933,"longitude":-82.460518},
{"county":"Hillsborough","name":"Cleveland Elementary School","city":"Tampa","enrollment":412,"grade17":"D","grade16":"D","grade15":"D","latitude":28.013908,"longitude":-82.452823},
{"county":"Hillsborough","name":"Dover Elementary School","city":"Dover","enrollment":677,"grade17":"D","grade16":"D","grade15":"D","latitude":27.987104,"longitude":-82.20939},
{"county":"Hillsborough","name":"Edison Elementary School","city":"Tampa","enrollment":462,"grade17":"D","grade16":"F","grade15":"F","latitude":27.988006,"longitude":-82.441623},
{"county":"Hillsborough","name":"Folsom Elementary School","city":"Thonotosassa","enrollment":545,"grade17":"D","grade16":"D","grade15":"D","latitude":28.047066,"longitude":-82.325275},
{"county":"Hillsborough","name":"Forest Hills Elementary School","city":"Tampa","enrollment":970,"grade17":"D","grade16":"F","grade15":"F","latitude":28.042349,"longitude":-82.464119},
{"county":"Hillsborough","name":"James Elementary School","city":"Tampa","enrollment":696,"grade17":"D","grade16":"D","grade15":"D","latitude":27.991485,"longitude":-82.410014},
{"county":"Hillsborough","name":"Kimbell Elementary School","city":"Tampa","enrollment":560,"grade17":"D","grade16":"D","grade15":"F","latitude":28.026298,"longitude":-82.410186},
{"county":"Hillsborough","name":"Mango Elementary School","city":"Seffner","enrollment":812,"grade17":"D","grade16":"D","grade15":"D","latitude":27.983735,"longitude":-82.303526},
{"county":"Hillsborough","name":"Mcdonald Elementary School","city":"Seffner","enrollment":600,"grade17":"D","grade16":"D","grade15":"C","latitude":28.022502,"longitude":-82.285572},
{"county":"Hillsborough","name":"Mclane Middle School","city":"Brandon","enrollment":730,"grade17":"D","grade16":"D","grade15":"C","latitude":27.942922,"longitude":-82.290624},
{"county":"Hillsborough","name":"Palm River Elementary School","city":"Tampa","enrollment":515,"grade17":"D","grade16":"D","grade15":"F","latitude":27.941203,"longitude":-82.386535},
{"county":"Hillsborough","name":"Patricia Sullivan Metropolitan Ministries Partnership School","city":"Tampa","enrollment":114,"grade17":"F","grade16":"C","grade15":"C","latitude":27.962578,"longitude":-82.460697},
{"county":"Hillsborough","name":"Pizzo Elementary School","city":"Tampa","enrollment":764,"grade17":"D","grade16":"D","grade15":"C","latitude":28.055769,"longitude":-82.404466},
{"county":"Hillsborough","name":"Robles Elementary School","city":"Tampa","enrollment":832,"grade17":"D","grade16":"D","grade15":"D","latitude":28.009718,"longitude":-82.409102},
{"county":"Hillsborough","name":"Shields Middle School","city":"Ruskin","enrollment":"1,394","grade17":"D","grade16":"D","grade15":"D","latitude":27.740082,"longitude":-82.369909},
{"county":"Hillsborough","name":"Sulphur Springs K-8 School","city":"Tampa","enrollment":733,"grade17":"D","grade16":"D","grade15":"F","latitude":28.027016,"longitude":-82.446542},
{"county":"Hillsborough","name":"Thompson Elementary","city":"Ruskin","enrollment":832,"grade17":"D","grade16":"D","grade15":"F","latitude":27.720477,"longitude":-82.407739},
{"county":"Lee","name":"East Lee County High School","city":"Lehigh Acres","enrollment":"2,021","grade17":"D","grade16":"D","grade15":"D","latitude":26.55904,"longitude":-81.602136},
{"county":"Leon","name":"Oak Ridge Elementary School","city":"Tallahassee","enrollment":517,"grade17":"D","grade16":"D","grade15":"F","latitude":30.383824,"longitude":-84.284208},
{"county":"Liberty","name":"Liberty Learning Center","city":"Bristol","enrollment":"","grade17":"F","grade16":"","grade15":"","latitude":30.426214,"longitude":-84.981912},
{"county":"Manatee","name":"Blanche H. Daughtrey Elementary","city":"Bradenton","enrollment":773,"grade17":"D","grade16":"D","grade15":"D","latitude":27.430272,"longitude":-82.557476},
{"county":"Manatee","name":"Oneco Elementary School","city":"Bradenton","enrollment":649,"grade17":"D","grade16":"D","grade15":"D","latitude":27.44843,"longitude":-82.536795},
{"county":"Marion","name":"Oakcrest Elementary School","city":"Ocala","enrollment":682,"grade17":"D","grade16":"D","grade15":"D","latitude":29.214722,"longitude":-82.123762},
{"county":"Marion","name":"Wyomina Park Elementary School","city":"Ocala","enrollment":696,"grade17":"F","grade16":"D","grade15":"C","latitude":29.192138,"longitude":-82.122458},
{"county":"Orange","name":"Catalina Elementary","city":"Orlando","enrollment":726,"grade17":"D","grade16":"D","grade15":"C","latitude":28.511512,"longitude":-81.408555},
{"county":"Orange","name":"Lake Weston Elementary","city":"Orlando","enrollment":550,"grade17":"D","grade16":"F","grade15":"D","latitude":28.612132,"longitude":-81.411704},
{"county":"Orange","name":"Lockhart Elementary","city":"Orlando","enrollment":495,"grade17":"D","grade16":"D","grade15":"C","latitude":28.624848,"longitude":-81.503139},
{"county":"Orange","name":"Memorial Middle","city":"Orlando","enrollment":822,"grade17":"D","grade16":"D","grade15":"D","latitude":28.511468,"longitude":-81.406341},
{"county":"Orange","name":"Rosemont Elementary","city":"Orlando","enrollment":818,"grade17":"D","grade16":"D","grade15":"D","latitude":28.603817,"longitude":-81.440377},
{"county":"Orange","name":"Tangelo Park Elementary","city":"Orlando","enrollment":571,"grade17":"D","grade16":"D","grade15":"D","latitude":28.456599,"longitude":-81.448935},
{"county":"Palm Beach","name":"Gold Coast Community School","city":"West Palm Beach","enrollment":79,"grade17":"F","grade16":"F","grade15":"F","latitude":26.70191,"longitude":-80.108163},
{"county":"Palm Beach","name":"Gove Elementary School","city":"Belle Glade","enrollment":717,"grade17":"D","grade16":"D","grade15":"D","latitude":26.677366,"longitude":-80.661186},
{"county":"Palm Beach","name":"North Area Elementary Transition School","city":"West Palm Beach","enrollment":"","grade17":"F","grade16":"F","grade15":"F","latitude":26.70191,"longitude":-80.108163},
{"county":"Palm Beach","name":"Palm Beach Lakes High School","city":"West Palm Beach","enrollment":"2,303","grade17":"D","grade16":"D","grade15":"C","latitude":26.755717,"longitude":-80.106631},
{"county":"Palm Beach","name":"West Riviera Elementary School","city":"Riviera Beach","enrollment":734,"grade17":"D","grade16":"D","grade15":"F","latitude":26.767379,"longitude":-80.069969},
{"county":"Pasco","name":"Ridgewood High School","city":"New Port Richey","enrollment":"1,063","grade17":"I","grade16":"D","grade15":"C","latitude":28.271224,"longitude":-82.688807},
{"county":"Pasco","name":"West Zephyrhills Elementary School","city":"Zephyrhills","enrollment":862,"grade17":"D","grade16":"D","grade15":"C","latitude":28.240204,"longitude":-82.18993},
{"county":"Pinellas","name":"Disston Academy","city":"Gulfport","enrollment":102,"grade17":"F","grade16":"","grade15":"","latitude":27.760103,"longitude":-82.702849},
{"county":"Pinellas","name":"Extended Transition Countywide","city":"Gulfport","enrollment":182,"grade17":"F","grade16":"","grade15":"","latitude":27.760103,"longitude":-82.702849},
{"county":"Pinellas","name":"Largo Middle School","city":"Largo","enrollment":776,"grade17":"D","grade16":"D","grade15":"C","latitude":27.908218,"longitude":-82.783901},
{"county":"Pinellas","name":"Midtown Academy","city":"St. Petersburg","enrollment":322,"grade17":"F","grade16":"","grade15":"","latitude":27.753448,"longitude":-82.648584},
{"county":"Pinellas","name":"Mildred Helms Elementary School","city":"Largo","enrollment":605,"grade17":"D","grade16":"D","grade15":"C","latitude":27.911999,"longitude":-82.798278},
{"county":"Polk","name":"Auburndale Central Elementary School","city":"Auburndale","enrollment":423,"grade17":"D","grade16":"F","grade15":"D","latitude":28.060697,"longitude":-81.788433},
{"county":"Polk","name":"Crystal Lake Elementary School","city":"Lakeland","enrollment":549,"grade17":"D","grade16":"D","grade15":"F","latitude":28.033859,"longitude":-81.912819},
{"county":"Polk","name":"Gibbons Street Elementary School","city":"Bartow","enrollment":288,"grade17":"D","grade16":"D","grade15":"D","latitude":27.886546,"longitude":-81.823485},
{"county":"Polk","name":"Jere L. Stambaugh Middle","city":"Auburndale","enrollment":820,"grade17":"D","grade16":"D","grade15":"C","latitude":28.071029,"longitude":-81.787919},
{"county":"Polk","name":"Kathleen Senior High School","city":"Lakeland","enrollment":"2,217","grade17":"I","grade16":"D","grade15":"C","latitude":28.056893,"longitude":-81.99667},
{"county":"Polk","name":"Mclaughlin Middle School And Fine Arts Academy","city":"Lake Wales","enrollment":825,"grade17":"F","grade16":"F","grade15":"C","latitude":27.888534,"longitude":-81.584495},
{"county":"Polk","name":"Mulberry Senior High School","city":"Mulberry","enrollment":"1,085","grade17":"D","grade16":"D","grade15":"C","latitude":27.895332,"longitude":-81.969784},
{"county":"Polk","name":"Walter Caldwell Elementary School","city":"Auburndale","enrollment":665,"grade17":"D","grade16":"D","grade15":"D","latitude":28.071406,"longitude":-81.775236},
{"county":"Putnam","name":"C. H. Price Middle School","city":"Interlachen","enrollment":632,"grade17":"D","grade16":"D","grade15":"C","latitude":29.634007,"longitude":-81.885359},
{"county":"Putnam","name":"George C. Miller Jr. Middle School","city":"Crescent City","enrollment":494,"grade17":"D","grade16":"D","grade15":"D","latitude":29.429879,"longitude":-81.508514},
{"county":"Putnam","name":"Interlachen High School","city":"Interlachen","enrollment":738,"grade17":"D","grade16":"D","grade15":"C","latitude":29.624657,"longitude":-81.886185},
{"county":"Putnam","name":"Mellon Elementary School","city":"Palatka","enrollment":313,"grade17":"D","grade16":"D","grade15":"F","latitude":29.644401,"longitude":-81.666652},
{"county":"Putnam","name":"Robert H. Jenkins, Junior Middle","city":"Palatka","enrollment":507,"grade17":"D","grade16":"F","grade15":"D","latitude":29.660051,"longitude":-81.64712},
{"county":"Seminole","name":"Idyllwilde Elementary School","city":"Sanford","enrollment":852,"grade17":"D","grade16":"D","grade15":"C","latitude":28.792237,"longitude":-81.309729},
{"county":"St. Lucie","name":"St. Lucie Elementary School","city":"Fort Pierce","enrollment":735,"grade17":"D","grade16":"F","grade15":"F","latitude":27.427218,"longitude":-80.336335},
{"county":"St. Lucie","name":"Weatherbee Elementary School","city":"Fort Pierce","enrollment":741,"grade17":"D","grade16":"D","grade15":"C","latitude":27.382784,"longitude":-80.315793},
{"county":"Volusia","name":"Blue Lake Elementary School","city":"Deland","enrollment":652,"grade17":"D","grade16":"D","grade15":"C","latitude":29.035702,"longitude":-81.274752},
{"county":"Volusia","name":"Palm Terrace Elementary School","city":"Daytona Beach","enrollment":711,"grade17":"D","grade16":"D","grade15":"C","latitude":29.198408,"longitude":-81.074289}]
